[{"state_abrev":"AK","NAME":"Alaska","males":25,"females":8,"Latitude":61.3025006,"Longitude":-158.7750198},{"state_abrev":"AL","NAME":"Alabama","males":228,"females":42,"Latitude":32.6010112,"Longitude":-86.6807365},{"state_abrev":"AR","NAME":"Arkansas","males":110,"females":23,"Latitude":34.7519275,"Longitude":-92.1313784},{"state_abrev":"AZ","NAME":"Arizona","males":208,"females":40,"Latitude":34.1682185,"Longitude":-111.930907},{"state_abrev":"CA","NAME":"California","males":1281,"females":160,"Latitude":37.2718745,"Longitude":-119.2704153},{"state_abrev":"CO","NAME":"Colorado","males":106,"females":39,"Latitude":38.9979339,"Longitude":-105.550567},{"state_abrev":"CT","NAME":"Connecticut","males":83,"females":27,"Latitude":41.5187835,"Longitude":-72.757507},{"state_abrev":"DC","NAME":"Dist. of Columbia","males":96,"females":8,"Latitude":38.8993487,"Longitude":-77.0145666},{"state_abrev":"DE","NAME":"Delaware","males":33,"females":8,"Latitude":39.145251,"Longitude":-75.4189206},{"state_abrev":"FL","NAME":"Florida","males":633,"females":136,"Latitude":27.9757279,"Longitude":-83.8330166},{"state_abrev":"GA","NAME":"Georgia","males":316,"females":70,"Latitude":32.6781248,"Longitude":-83.2229757},{"state_abrev":"HI","NAME":"Hawaii","males":7,"females":6,"Latitude":20.46,"Longitude":-157.505},{"state_abrev":"IA","NAME":"Iowa","males":47,"females":9,"Latitude":41.9383166,"Longitude":-93.389798},{"state_abrev":"ID","NAME":"Idaho","males":23,"females":5,"Latitude":45.4945756,"Longitude":-114.1424303},{"state_abrev":"IL","NAME":"Illinois","males":552,"females":63,"Latitude":39.739318,"Longitude":-89.504139},{"state_abrev":"IN","NAME":"Indiana","males":296,"females":43,"Latitude":39.7662195,"Longitude":-86.441277},{"state_abrev":"KS","NAME":"Kansas","males":90,"females":21,"Latitude":38.4987789,"Longitude":-98.3200779},{"state_abrev":"KY","NAME":"Kentucky","males":139,"females":39,"Latitude":37.8222935,"Longitude":-85.7682399},{"state_abrev":"LA","NAME":"Louisiana","males":369,"females":51,"Latitude":30.9733766,"Longitude":-91.4299097},{"state_abrev":"MA","NAME":"Massachusetts","males":87,"females":11,"Latitude":42.0629398,"Longitude":-71.718067},{"state_abrev":"MD","NAME":"Maryland","males":295,"females":35,"Latitude":38.8063524,"Longitude":-77.2684162},{"state_abrev":"ME","NAME":"Maine","males":21,"females":5,"Latitude":45.2185133,"Longitude":-69.0148656},{"state_abrev":"MI","NAME":"Michigan","males":409,"females":77,"Latitude":44.9435598,"Longitude":-86.4158049},{"state_abrev":"MN","NAME":"Minnesota","males":91,"females":14,"Latitude":46.4418595,"Longitude":-93.3655146},{"state_abrev":"MO","NAME":"Missouri","males":292,"females":59,"Latitude":38.3046615,"Longitude":-92.437099},{"state_abrev":"MS","NAME":"Mississippi","males":110,"females":29,"Latitude":32.5851062,"Longitude":-89.8772196},{"state_abrev":"MT","NAME":"Montana","males":31,"females":1,"Latitude":46.6797995,"Longitude":-110.044783},{"state_abrev":"NC","NAME":"North Carolina","males":359,"females":79,"Latitude":35.2145629,"Longitude":-79.8912675},{"state_abrev":"ND","NAME":"North Dakota","males":7,"females":1,"Latitude":47.4678819,"Longitude":-100.3022655},{"state_abrev":"NE","NAME":"Nebraska","males":48,"females":6,"Latitude":41.5008195,"Longitude":-99.680902},{"state_abrev":"NH","NAME":"New Hampshire","males":13,"females":1,"Latitude":44.0012306,"Longitude":-71.5799231},{"state_abrev":"NJ","NAME":"New Jersey","males":252,"females":25,"Latitude":40.1430058,"Longitude":-74.7311156},{"state_abrev":"NM","NAME":"New Mexico","males":69,"females":19,"Latitude":34.1662325,"Longitude":-106.0260685},{"state_abrev":"NV","NAME":"Nevada","males":99,"females":22,"Latitude":38.502032,"Longitude":-117.0230604},{"state_abrev":"NY","NAME":"New York","males":329,"females":49,"Latitude":40.7056258,"Longitude":-73.97968},{"state_abrev":"OH","NAME":"Ohio","males":421,"females":74,"Latitude":40.1903624,"Longitude":-82.6692525},{"state_abrev":"OK","NAME":"Oklahoma","males":148,"females":35,"Latitude":35.3097654,"Longitude":-98.7165585},{"state_abrev":"OR","NAME":"Oregon","males":66,"females":19,"Latitude":44.1419049,"Longitude":-120.5380993},{"state_abrev":"PA","NAME":"Pennsylvania","males":492,"females":77,"Latitude":40.9945928,"Longitude":-77.6046984},{"state_abrev":"RI","NAME":"Rhode Island","males":19,"females":6,"Latitude":41.5827282,"Longitude":-71.5064508},{"state_abrev":"SC","NAME":"South Carolina","males":176,"females":59,"Latitude":33.62505,"Longitude":-80.9470381},{"state_abrev":"SD","NAME":"South Dakota","males":16,"females":1,"Latitude":44.2126995,"Longitude":-100.2471641},{"state_abrev":"TN","NAME":"Tennessee","males":237,"females":48,"Latitude":35.830521,"Longitude":-85.9785989},{"state_abrev":"TX","NAME":"Texas","males":806,"females":176,"Latitude":31.1693363,"Longitude":-100.0768425},{"state_abrev":"UT","NAME":"Utah","males":41,"females":13,"Latitude":39.4997605,"Longitude":-111.547028},{"state_abrev":"VA","NAME":"Virginia","males":234,"females":46,"Latitude":38.0033855,"Longitude":-79.4587861},{"state_abrev":"VT","NAME":"Vermont","males":11,"females":4,"Latitude":43.8717545,"Longitude":-72.4477828},{"state_abrev":"WA","NAME":"Washington","males":126,"females":17,"Latitude":38.8993487,"Longitude":-77.0145665},{"state_abrev":"WI","NAME":"Wisconsin","males":138,"females":28,"Latitude":44.7862968,"Longitude":-89.8267049},{"state_abrev":"WV","NAME":"West Virginia","males":56,"females":9,"Latitude":38.9201705,"Longitude":-80.1816905},{"state_abrev":"WY","NAME":"Wyoming","males":10,"females":6,"Latitude":43.000325,"Longitude":-107.5545669}]